id,alpha3,code,name,standard_name,latitude,longitude,aliases
AD,AND,20,Andorra,Andorra,42.546245,1.601554,
AE,ARE,784,United Arab Emirates,United Arab Emirates,23.424076,53.847818,
AF,AFG,4,Afghanistan,Afghanistan,33.93911,67.709953,
AG,ATG,28,Antigua and Barbuda,Antigua and Barbuda,17.060816,-61.796428,
AI,AIA,660,Anguilla,Anguilla,18.220554,-63.068615,
AL,ALB,8,Albania,Albania,41.153332,20.168331,
AM,ARM,51,Armenia,Armenia,40.069099,45.038189,
AO,AGO,24,Angola,Angola,-11.202692,17.873887,
AQ,ATA,10,Antarctica,Antarctica,-75.250973,-0.071389,
AR,ARG,32,Argentina,Argentina,-38.416097,-63.616672,
AS,ASM,16,American Samoa,American Samoa,-14.270972,-170.132217,
AT,AUT,40,Austria,Austria,47.516231,14.550072,
AU,AUS,36,Australia,Australia,-25.274398,133.775136,
AW,ABW,533,Aruba,Aruba,12.52111,-69.968338,
AX,ALA,248,Aland Islands,Aland Islands,60.178524,19.9156094,
AZ,AZE,31,Azerbaijan,Azerbaijan,40.143105,47.576927,
BA,BIH,70,Bosnia and Herzegovina,Bosnia and Herzegovina,43.915886,17.679076,
BB,BRB,52,Barbados,Barbados,13.193887,-59.543198,
BD,BGD,50,Bangladesh,Bangladesh,23.684994,90.356331,
BE,BEL,56,Belgium,Belgium,50.503887,4.469936,
BF,BFA,854,Burkina Faso,Burkina Faso,12.238333,-1.561593,
BG,BGR,100,Bulgaria,Bulgaria,42.733883,25.48583,
BH,BHR,48,Bahrain,Bahrain,25.930414,50.637772,
BI,BDI,108,Burundi,Burundi,-3.373056,29.918886,
BJ,BEN,204,Benin,Benin,9.30769,2.315834,
BL,BLM,652,Saint Barthelemy,Saint Barthélemy,17.8999996,-62.8333321,St.Barts
BM,BMU,60,Bermuda,Bermuda,32.321384,-64.75737,
BN,BRN,96,Brunei,Brunei Darussalam,4.535277,114.727669,
BO,BOL,68,Bolivia,Bolivia (Plurinational State of),-16.290154,-63.588653,
BQ,BES,535,Caribbean Netherlands,"Bonaire, Sint Eustatius and Saba",12.1783609,-68.238533,"Bonaire,Saint Eustatius,Saba"
BR,BRA,76,Brazil,Brazil,-14.235004,-51.92528,
BS,BHS,44,Bahamas,Bahamas,25.03428,-77.39628,
BT,BTN,64,Bhutan,Bhutan,27.514162,90.433601,
BV,BVT,74,Bouvet Island,Bouvet Island,-54.423199,3.413194,
BW,BWA,72,Botswana,Botswana,-22.328474,24.684866,
BY,BLR,112,Belarus,Belarus,53.709807,27.953389,
BZ,BLZ,84,Belize,Belize,17.189877,-88.49765,
CA,CAN,124,Canada,Canada,56.130366,-106.346771,
CC,CCK,166,Cocos Islands,Cocos (Keeling) Islands,-12.164165,96.870956,Cocos (Keeling) Islands
CD,COD,180,Democratic Republic of the Congo,Congo (the Democratic Republic of the),-4.038333,21.758664,DR Congo;Republic of the Congo
CF,CAF,140,Central African Republic,Central African Republic,6.611111,20.939444,
CG,COG,178,Congo,Congo,-0.228021,15.827659,
CH,CHE,756,Switzerland,Switzerland,46.818188,8.227512,
CI,CIV,384,Ivory Coast,Côte d'Ivoire,7.539989,-5.54708,Republic of Côte d'Ivoire
CK,COK,184,Cook Islands,Cook Islands,-21.236736,-159.777671,
CL,CHL,152,Chile,Chile,-35.675147,-71.542969,
CM,CMR,120,Cameroon,Cameroon,7.369722,12.354722,
CN,CHN,156,China,China,35.86166,104.195397,
CO,COL,170,Colombia,Colombia,4.570868,-74.297333,
CR,CRI,188,Costa Rica,Costa Rica,9.748917,-83.753428,
CU,CUB,192,Cuba,Cuba,21.521757,-77.781167,
CV,CPV,132,Cape Verde,Cabo Verde,16.002082,-24.013197,
CW,CUW,531,Curacao,Curaçao,12.2135221,-68.9495816,
CX,CXR,162,Christmas Island,Christmas Island,-10.447525,105.690449,
CY,CYP,196,Cyprus,Cyprus,35.126413,33.429859,
CZ,CZE,203,Czech Republic,Czechia,49.817492,15.472962,
DE,DEU,276,Germany,Germany,51.165691,10.451526,
DJ,DJI,262,Djibouti,Djibouti,11.825138,42.590275,
DK,DNK,208,Denmark,Denmark,56.26392,9.501785,
DM,DMA,212,Dominica,Dominica,15.414999,-61.370976,
DO,DOM,214,Dominican Republic,Dominican Republic,18.735693,-70.162651,
DZ,DZA,12,Algeria,Algeria,28.033886,1.659626,
EC,ECU,218,Ecuador,Ecuador,-1.831239,-78.183406,
EE,EST,233,Estonia,Estonia,58.595272,25.013607,
EG,EGY,818,Egypt,Egypt,26.820553,30.802498,
EH,ESH,732,Western Sahara,Western Sahara,24.215527,-12.885834,
ER,ERI,232,Eritrea,Eritrea,15.179384,39.782334,
ES,ESP,724,Spain,Spain,40.463667,-3.74922,
ET,ETH,231,Ethiopia,Ethiopia,9.145,40.489673,
FI,FIN,246,Finland,Finland,61.92411,25.748151,
FJ,FJI,242,Fiji,Fiji,-16.578193,179.414413,
FK,FLK,238,Falkland Islands,Falkland Islands  [Malvinas],-51.796253,-59.523613,"Islas Malvinas, Falkland Islands (Islas Malvinas)"
FM,FSM,583,Micronesia,Micronesia (Federated States of),7.425554,150.550812,Federated States of Micronesia
FO,FRO,234,Faroe Islands,Faroe Islands,61.892635,-6.911806,
FR,FRA,250,France,France,46.227638,2.213749,
GA,GAB,266,Gabon,Gabon,-0.803689,11.609444,
GB,GBR,826,United Kingdom,United Kingdom,55.378051,-3.435973,United Kingdom of Great Britain and Northern Ireland
GD,GRD,308,Grenada,Grenada,12.262776,-61.604171,
GE,GEO,268,Georgia,Georgia,42.315407,43.356892,
GF,GUF,254,French Guiana,French Guiana,3.933889,-53.125782,
GG,GGY,831,Guernsey,Guernsey,49.465691,-2.585278,
GH,GHA,288,Ghana,Ghana,7.946527,-1.023194,
GI,GIB,292,Gibraltar,Gibraltar,36.137741,-5.345374,
GL,GRL,304,Greenland,Greenland,71.706936,-42.604303,
GM,GMB,270,Gambia,Gambia,13.443182,-15.310139,
GN,GIN,324,Guinea,Guinea,9.945587,-9.696645,
GP,GLP,312,Guadeloupe,Guadeloupe,16.995971,-62.067641,
GQ,GNQ,226,Equatorial Guinea,Equatorial Guinea,1.650801,10.267895,
GR,GRC,300,Greece,Greece,39.074208,21.824312,
GS,SGS,239,South Georgia and the South Sandwich Islands,South Georgia and the South Sandwich Islands,-54.429579,-36.587909,
GT,GTM,320,Guatemala,Guatemala,15.783471,-90.230759,
GU,GUM,316,Guam,Guam,13.444304,144.793731,
GW,GNB,624,Guinea-Bissau,Guinea-Bissau,11.803749,-15.180413,
GY,GUY,328,Guyana,Guyana,4.860416,-58.93018,
GZ,GAZ,274,Gaza Strip,,31.354676,34.308825,
HK,HKG,344,Hong Kong,Hong Kong,22.396428,114.109497,
HM,HMD,334,Heard Island and McDonald Islands,Heard Island and McDonald Islands,-53.08181,73.504158,
HN,HND,340,Honduras,Honduras,15.199999,-86.241905,
HR,HRV,191,Croatia,Croatia,45.1,15.2,
HT,HTI,332,Haiti,Haiti,18.971187,-72.285215,
HU,HUN,348,Hungary,Hungary,47.162494,19.503304,
ID,IDN,360,Indonesia,Indonesia,-0.789275,113.921327,
IE,IRL,372,Ireland,Ireland,53.41291,-8.24389,
IL,ISR,376,Israel,Israel,31.046051,34.851612,
IM,IMN,833,Isle of Man,Isle of Man,54.236107,-4.548056,
IN,IND,356,India,India,20.593684,78.96288,
IO,IOT,86,British Indian Ocean Territory,British Indian Ocean Territory,-6.343194,71.876519,
IQ,IRQ,368,Iraq,Iraq,33.223191,43.679291,
IR,IRN,364,Iran,Iran (Islamic Republic of),32.427908,53.688046,Islamic Republic of Iran
IS,ISL,352,Iceland,Iceland,64.963051,-19.020835,
IT,ITA,380,Italy,Italy,41.87194,12.56738,
JE,JEY,832,Jersey,Jersey,49.214439,-2.13125,
JM,JAM,388,Jamaica,Jamaica,18.109581,-77.297508,
JO,JOR,400,Jordan,Jordan,30.585164,36.238414,
JP,JPN,392,Japan,Japan,36.204824,138.252924,
KE,KEN,404,Kenya,Kenya,-0.023559,37.906193,
KG,KGZ,417,Kyrgyzstan,Kyrgyzstan,41.20438,74.766098,
KH,KHM,116,Cambodia,Cambodia,12.565679,104.990963,
KI,KIR,296,Kiribati,Kiribati,-3.370417,-168.734039,
KM,COM,174,Comoros,Comoros,-11.875001,43.872219,
KN,KNA,659,Saint Kitts and Nevis,Saint Kitts and Nevis,17.357822,-62.782998,
KP,PRK,408,North Korea,Korea (the Democratic People's Republic of),40.339852,127.510093,Democratic People Republic of Korea
KR,KOR,410,South Korea,Korea (the Republic of),35.907757,127.766922,Republic of Korea
KW,KWT,414,Kuwait,Kuwait,29.31166,47.481766,
KY,CYM,136,Cayman Islands,Cayman Islands,19.513469,-80.566956,
KZ,KAZ,398,Kazakhstan,Kazakhstan,48.019573,66.923684,
LA,LAO,418,Laos,Lao People's Democratic Republic,19.85627,102.495496,Lao People Democratic Republic
LB,LBN,422,Lebanon,Lebanon,33.854721,35.862285,
LC,LCA,662,Saint Lucia,Saint Lucia,13.909444,-60.978893,
LI,LIE,438,Liechtenstein,Liechtenstein,47.166,9.555373,
LK,LKA,144,Sri Lanka,Sri Lanka,7.873054,80.771797,
LR,LBR,430,Liberia,Liberia,6.428055,-9.429499,
LS,LSO,426,Lesotho,Lesotho,-29.609988,28.233608,
LT,LTU,440,Lithuania,Lithuania,55.169438,23.881275,
LU,LUX,442,Luxembourg,Luxembourg,49.815273,6.129583,
LV,LVA,428,Latvia,Latvia,56.879635,24.603189,
LY,LBY,434,Libya,Libya,26.3351,17.228331,Libyan Arab Jamahiriya
MA,MAR,504,Morocco,Morocco,31.791702,-7.09262,
MC,MCO,492,Monaco,Monaco,43.750298,7.412841,
MD,MDA,498,Moldova,Moldova (the Republic of),47.411631,28.369885,
ME,MNE,499,Montenegro,Montenegro,42.708678,19.37439,
MF,MAF,663,Saint Martin,Saint Martin (French part),18.0708294,-63.0500793,
MG,MDG,450,Madagascar,Madagascar,-18.766947,46.869107,
MH,MHL,584,Marshall Islands,Marshall Islands,7.131474,171.184478,
MK,MKD,807,Macedonia,Republic of North Macedonia,41.608635,21.745275,North Macedonia
ML,MLI,466,Mali,Mali,17.570692,-3.996166,
MM,MMR,104,Myanmar,Myanmar,21.913965,95.956223,Burma
MN,MNG,496,Mongolia,Mongolia,46.862496,103.846656,
MO,MAC,446,Macau,Macao,22.198745,113.543873,
MP,MNP,580,Northern Mariana Islands,Northern Mariana Islands,17.33083,145.38469,
MQ,MTQ,474,Martinique,Martinique,14.641528,-61.024174,
MR,MRT,478,Mauritania,Mauritania,21.00789,-10.940835,
MS,MSR,500,Montserrat,Montserrat,16.742498,-62.187366,
MT,MLT,470,Malta,Malta,35.937496,14.375416,
MU,MUS,480,Mauritius,Mauritius,-20.348404,57.552152,
MV,MDV,462,Maldives,Maldives,3.202778,73.22068,
MW,MWI,454,Malawi,Malawi,-13.254308,34.301525,
MX,MEX,484,Mexico,Mexico,23.634501,-102.552784,
MY,MYS,458,Malaysia,Malaysia,4.210484,101.975766,
MZ,MOZ,508,Mozambique,Mozambique,-18.665695,35.529562,
NA,NAM,516,Namibia,Namibia,-22.95764,18.49041,
NC,NCL,540,New Caledonia,New Caledonia,-20.904305,165.618042,
NE,NER,562,Niger,Niger,17.607789,8.081666,
NF,NFK,574,Norfolk Island,Norfolk Island,-29.040835,167.954712,
NG,NGA,566,Nigeria,Nigeria,9.081999,8.675277,
NI,NIC,558,Nicaragua,Nicaragua,12.865416,-85.207229,
NL,NLD,528,Netherlands,Netherlands,52.132633,5.291266,
NO,NOR,578,Norway,Norway,60.472024,8.468946,
NP,NPL,524,Nepal,Nepal,28.394857,84.124008,
NR,NRU,520,Nauru,Nauru,-0.522778,166.931503,
NU,NIU,570,Niue,Niue,-19.054445,-169.867233,
NZ,NZL,554,New Zealand,New Zealand,-40.900557,174.885971,
OM,OMN,512,Oman,Oman,21.512583,55.923255,
PA,PAN,591,Panama,Panama,8.537981,-80.782127,
PE,PER,604,Peru,Peru,-9.189967,-75.015152,
PF,PYF,258,French Polynesia,French Polynesia,-17.679742,-149.406843,
PG,PNG,598,Papua New Guinea,Papua New Guinea,-6.314993,143.95555,
PH,PHL,608,Philippines,Philippines,12.879721,121.774017,
PK,PAK,586,Pakistan,Pakistan,30.375321,69.345116,
PL,POL,616,Poland,Poland,51.919438,19.145136,
PM,SPM,666,Saint Pierre and Miquelon,Saint Pierre and Miquelon,46.941936,-56.27111,
PN,PCN,612,Pitcairn Islands,Pitcairn,-24.703615,-127.439308,
PR,PRI,630,Puerto Rico,Puerto Rico,18.220833,-66.590149,
PS,PSE,275,Palestinian Territories,"Palestine, State of",31.952162,35.233154,State of Palestine;Palestinian;West Bank and Gaza
PT,PRT,620,Portugal,Portugal,39.399872,-8.224454,
PW,PLW,585,Palau,Palau,7.51498,134.58252,
PY,PRY,600,Paraguay,Paraguay,-23.442503,-58.443832,
QA,QAT,634,Qatar,Qatar,25.354826,51.183884,
RE,REU,638,Reunion,Réunion,-21.115141,55.536384,
RO,ROU,642,Romania,Romania,45.943161,24.96676,
RS,SRB,688,Serbia,Serbia,44.016521,21.005859,
RU,RUS,643,Russia,Russian Federation,61.52401,105.318756,
RW,RWA,646,Rwanda,Rwanda,-1.940278,29.873888,
SA,SAU,682,Saudi Arabia,Saudi Arabia,23.885942,45.079162,
SB,SLB,90,Solomon Islands,Solomon Islands,-9.64571,160.156194,
SC,SYC,690,Seychelles,Seychelles,-4.679574,55.491977,
SD,SDN,729,Sudan,Sudan,12.862807,30.217636,
SE,SWE,752,Sweden,Sweden,60.128161,18.643501,
SG,SGP,702,Singapore,Singapore,1.352083,103.819836,
SH,SHN,654,Saint Helena,"Saint Helena, Ascension and Tristan da Cunha",-24.143474,-10.030696,
SI,SVN,705,Slovenia,Slovenia,46.151241,14.995463,
SJ,SJM,744,Svalbard and Jan Mayen,Svalbard and Jan Mayen,77.553604,23.670272,
SK,SVK,703,Slovakia,Slovakia,48.669026,19.699024,
SL,SLE,694,Sierra Leone,Sierra Leone,8.460555,-11.779889,
SM,SMR,674,San Marino,San Marino,43.94236,12.457777,
SN,SEN,686,Senegal,Senegal,14.497401,-14.452362,
SO,SOM,706,Somalia,Somalia,5.152149,46.199616,
SR,SUR,740,Suriname,Suriname,3.919305,-56.027783,
SS,SSD,728,South Sudan,South Sudan,7.8626845,29.6949232,
ST,STP,678,Sao Tome And Principe,Sao Tome and Principe,0.18636,6.613081,São Tomé and Príncipe
SV,SLV,222,El Salvador,El Salvador,13.794185,-88.89653,
SX,SXM,534,Sint Maarten,Sint Maarten (Dutch part),18.0424805,-63.0548286,
SY,SYR,760,Syria,Syrian Arab Republic,34.802075,38.996815,
SZ,SWZ,748,Swaziland,Eswatini,-26.522503,31.465866,Kingdom of Eswatini
TC,TCA,796,Turks and Caicos Islands,Turks and Caicos Islands,21.694025,-71.797928,
TD,TCD,148,Chad,Chad,15.454166,18.732207,
TF,ATF,260,French Southern Territories,French Southern Territories,-49.280366,69.348557,
TG,TGO,768,Togo,Togo,8.619543,0.824782,
TH,THA,764,Thailand,Thailand,15.870032,100.992541,
TJ,TJK,762,Tajikistan,Tajikistan,38.861034,71.276093,
TK,TKL,772,Tokelau,Tokelau,-8.967363,-171.855881,
TL,TLS,626,Timor-Leste,Timor-Leste,-8.874217,125.727539,East Timor
TM,TKM,795,Turkmenistan,Turkmenistan,38.969719,59.556278,
TN,TUN,788,Tunisia,Tunisia,33.886917,9.537499,
TO,TON,776,Tonga,Tonga,-21.178986,-175.198242,
TR,TUR,792,Turkey,Turkey,38.963745,35.243322,
TT,TTO,780,Trinidad and Tobago,Trinidad and Tobago,10.691803,-61.222503,
TV,TUV,798,Tuvalu,Tuvalu,-7.109535,177.64933,
TW,TWN,158,Taiwan,Taiwan (Province of China),23.69781,120.960515,
TZ,TZA,834,Tanzania,"Tanzania, United Republic of",-6.369028,34.888822,United Republic of Tanzania
UA,UKR,804,Ukraine,Ukraine,48.379433,31.16558,
UG,UGA,800,Uganda,Uganda,1.373333,32.290275,
UM,UMI,581,United States Minor Outlying Islands,United States Minor Outlying Islands,19.295374,166.6280441,U.S. Minor Outlying Islands
US,USA,840,United States,United States of America,37.09024,-95.712891,
UY,URY,858,Uruguay,Uruguay,-32.522779,-55.765835,
UZ,UZB,860,Uzbekistan,Uzbekistan,41.377491,64.585262,
VA,VAT,336,Vatican City State,Holy See,41.902916,12.453389,Vatican City
VC,VCT,670,Saint Vincent and the Grenadines,Saint Vincent and the Grenadines,12.984305,-61.287228,
VE,VEN,862,Venezuela,Venezuela (Bolivarian Republic of),6.42375,-66.58973,
VG,VGB,92,British Virgin Islands,Virgin Islands (British),18.420695,-64.639968,
VI,VIR,850,United States Virgin Islands,Virgin Islands (U.S.),18.335765,-64.896335,U.S. Virgin Islands
VN,VNM,704,Vietnam,Viet Nam,14.058324,108.277199,Việt Nam
VU,VUT,548,Vanuatu,Vanuatu,-15.376706,166.959158,
WF,WLF,876,Wallis and Futuna Islands,Wallis and Futuna,-13.768752,-177.156097,
WS,WSM,882,Samoa,Samoa,-13.759029,-172.104629,
XK,XKX,,Kosovo,,42.602636,20.902977,
YE,YEM,887,Yemen,Yemen,15.552727,48.516388,
YT,MYT,175,Mayotte,Mayotte,-12.8275,45.166244,
ZA,ZAF,710,South Africa,South Africa,-30.559482,22.937506,
ZM,ZMB,894,Zambia,Zambia,-13.133897,27.849332,
ZW,ZWE,716,Zimbabwe,Zimbabwe,-19.015438,29.154857,
